latitude,longitude,name,source,precision,,
42.156672,-87.867387,"202 North Wilmot Road, Deerfield, Illinois 60015",findlatandlong,address,,
42.104845,-87.746913,"1155 West Oak Street, Winnetka, Illinois 60093",findlatandlong,address,,
42.023265,-87.69902,"303 Dodge Avenue, Chicago, Illinois 60202",findlatandlong,address,,
42.152415,-87.941526,"1025 East Lake Cook Road, Wheeling, Illinois 60090",findlatandlong,address,,
42.228495,-87.945704,"165 North Lakeview Parkway, Vernon Hills, Illinois 60061",findlatandlong,address,,
41.902882,-87.807554,"7200 W. Division Street, River Forest, Illinois 60305",findlatandlong,address,,
41.749779,-87.709165,"3450-52 W. 79th Street, Chicago, Illinois 60652",findlatandlong,address,,
41.816108,-88.009628,"3905 South Higland Avenue, Downers Grove, Illinois 60515",findlatandlong,address,,
41.97533,-88.205645,"795 South Route 59, Bartlett, Illinois 60103",findlatandlong,address,,
41.933128,-88.770855,"Gabel Hall 169 and 170, DeKalb, Illinois 60115",findlatandlong,address,,
38.796882,-89.965712,"795 Northwest University Drive, Edwardsville, Illinois 62026",findlatandlong,address,,
41.832525,-88.053474,"2 South 726 Route 53, Glen Ellyn, Illinois 60137",findlatandlong,address,,
42.254706,-88.022332,"695 South Route 83, Mundelein, Illinois 60060",findlatandlong,address,,
41.93786,-88.401715,"40 W 170 LaFox Road, St. Charles, Illinois 60175",findlatandlong,address,,
42.304062,-87.869274,"3110 Great Lakes Drive, Great Lakes, Illinois 60088",Google,address,,
41.687832,-88.206372,"4512 Walton Heath Drive, Naperville, Illinois 60564",Google,address,,
41.860221,-87.791451,"1448 Westley, Berwyn, Illinois 60402",Google,address,,
42.304070,-87.897105,"200 Abbott Park Road, Abbott Park, Illinois 60064",Google,address,,
41.518560,-90.531555,"1 Rock Island Aresenal, Rock Island, Illinois 61299",Google,address,,
41.843346,-87.781218,"6304 West 26th Street, Berwyn, Illinois 60402",MapQuest Open,address,,
42.303294,-87.863867,"2700 Cavin Drive, Great Lakes, Illinois 60088",MapQuest Open,address,,
40.693358,-89.606066,"800 W. Romeo B. Garrett Avenue, Peoria, Illinois 61605",MapQuest Open,address,,
41.7657897,-87.6137627,"440 E. 71st Street, Chicago, Illinois 60619",Bing Maps,address,,
41.946156,-87.760716,"5332 West Addison Street, Chicago, Illinois 60641",MapQuest Open,address,,
41.891855,-88.326017,"1776 West State Street, Geneva, Illinois 60134",MapQuest Open,address,,
41.646067,-87.637081,"13751 S. Lowe Avenue, Riverdale, Illinois 60827",MapQuest Open,address,,
41.8022118,-87.6215134,"118 E. 51st, Chicago, Illinois 60615",Bing Maps,address,,
41.7761806,-87.6428767,"710 W. 65th Street, Chicago, Illinois 60621",Bing Maps,address,,
42.3979378,-87.8753204,"2500 N. Northern Avenue, Waukegan, Illinois 60087",Bing Maps,address,,
42.1080971,-87.8749542,"3835 Willow Road, Northbrook, Illinois 60062",Bing Maps,address,,
41.888437,-87.7868604,"460 Lake Street, Oak Park, Illinois 60302",Bing Maps,address,,
42.0080649,-87.7269144,"3925 W. Lunt Avenue, Lincolnwood, Illinois 60712",Bing Maps,address,,
42.2572971,-87.8632115,"1100 N. Westmoreland, Lake Forest, Illinois 60045",Bing Maps,address,,
42.0319672,-87.6805038,"740 Custer Avenue, Evanston, Illinois 60202",Bing Maps,address,,
42.3083717,-87.8624403,"3001 Green Bay Road, North Chicago, Illinois 60064",Bing Maps,address,,
42.1078758,-87.734436,"800 Pine Street, Winnetka, Illinois 60093",Bing Maps,address,,
41.598579,-87.785957,"16100 Oak Park Avenue, Tinley Park, Illinois 60477",Bing Maps,address,,
41.8708801,-87.6386719,"801 South Canal Street, Chicago, Illinois 60607",Bing Maps,address,,
41.889251,-87.797225,"848 Lake Street, Oak Park, Illinois 60301",Bing Maps,address,,
42.0700111,-87.7565308,"3220 Big Tree Lane, Wilmette, Illinois 60091",Bing Maps,address,,
42.0798891,-88.2134979,"5334 Sears Parkway, Hoffman Estates, Illinois 60195",Bing Maps,address,,
41.7927352,-87.9347071,"415 W. 8th Street, Hinsdale, Illinois 60521",Bing Maps,address,,
42.1424255,-87.7651596,"999 Green Bay Road, Glencoe, Illinois 60022",Bing Maps,address,,
42.0335464,-87.7045364,"2200 Main Street, Evanston, Illinois 60202",Bing Maps,address,,
41.8995934,-87.8095551,"7400 Augusta Street, River Forest, Illinois 60305",Bing Maps,address,,
41.9155045,-87.8426437,"2000 Fifth Avenue, River Grove, Illinois 60171",Bing Maps,address,,
41.8386975,-87.6389218,"3053 South Normal Avenue, Chicago, Illinois 60616",Bing Maps,address,,
41.7129019,-87.9605757,"9700 South Cass Avenue, Lemont, Illinois 60439",Bing Maps,address,,
41.8549953,-87.6346531,"2141 South Tan Court, Chicago, Illinois 60616",Bing Maps,address,,
41.8847517,-87.63252,"160 North LaSalle, Chicago, Illinois 60601",Bing Maps,address,,
42.051918,-87.6906509,"1840 Asbury Avenue, Evanston, Illinois 60201",Bing Maps,address,,
41.8583183,-87.6616364,"1710 South Loomis Street, Chicago, Illinois 60608",Bing Maps,address,,
42.0760536,-88.3430023,"2450 Westfield Drive, Elgin, Illinois 60124",Bing Maps,address,,
42.0341454,-88.1183395,"421 North Springinsguth, Schaumburg, Illinois 60194",Bing Maps,address,,
41.4764633,-87.7090759,"22700 Richton Square Road, Richton Park, Illinois 60471",Bing Maps,address,,
42.1057449,-87.8453654,"2700 Willow Road, Northbrook, Illinois 60062",Bing Maps,address,,
42.0792084,-87.7041473,"1024 Lake Avenue, Wilmette, Illinois 60091",Bing Maps,address,,
42.1637917,-87.8821487,"5 Parkway North Blvd., Deerfield, Illinois 60015",Bing Maps,address,,
41.8742073,-87.6395099,"610 South Canal Street, Chicago, Illinois 60607",Bing Maps,address,,
40.4667625,-88.9525909,"2708 East Lincoln Street, Bloomington, Illinois 61704",Bing Maps,address,,
41.8800812,-87.6443863,"120 S. Des Plaines St., Chicago, Illinois 60661",Bing Maps,address,,
41.8775547,-87.6740098,"1900 West Jackson Blvd, Chicago, Illinois 60612",Bing Maps,address,,
42.043397,-87.6804692,"1427 Chicago Avenue, Evanston, Illinois 60201",Bing Maps,address,,
41.7107735,-87.5905457,"10001 South Woodlawn Avenue, Chicago, Illinois 60628",Bing Maps,address,,
42.353119,-87.9690179,"17368 West Gages Lake Road, Gages Lake, Illinois 60030",Bing Maps,address,,
42.0439301,-87.6930008,"1418 Lake Street, Evanston, Illinois 60201",Bing Maps,address,,
41.8158048,-87.6668295,"1653 West 43rd Street, Chicago, Illinois 60609",Bing Maps,address,,
42.1265106,-87.8640823,"3433 Walters Avenue, Northbrook, Illinois 60062",Bing Maps,address,,
39.7208519,-89.6156311,"5250 Shepherd Road, Springfield, Illinois 62794",Bing Maps,address,,
41.7835846,-87.9597244,"5728 Virginia Avenue, Clarendon Hills, Illinois 60514",Bing Maps,address,,
41.9053345,-88.1212463,"140 North Gary Avenue, Carol Stream, Illinois 60188",Bing Maps,address,,
40.4709816,-88.9902802,"309 East Wood Street, Bloomington, Illinois 61701",Bing Maps,address,,
41.8041229,-88.3253708,"12 John St, North Aurora, Illinois 60542",Bing Maps,address,,
38.0914731,-88.538121,"310 South Pearl St., McLeansboro, Illinois 62859",Bing Maps,address,,
41.7960815,-87.5977249,"5467 South University, Chicago, Illinois 60615",Bing Maps,address,,
40.5321486,-88.9631076,"1700 North Towanda Avenue, Normal, Illinois 61761",Bing Maps,address,,
42.3181953,-88.990036,"6473 East Riverside Blvd., Rockford, Illinois 61114",Bing Maps,address,,
37.7311821,-88.9161987,"1104 East Main, Marion, Illinois 62959",Bing Maps,address,,
41.9411793,-87.642982,"524 West Melrose, Chicago, Illinois 60657",Bing Maps,address,,
42.2938461,-89.6130676,"511 South Liberty, Freeport, Illinois 61032",Bing Maps,address,,
39.3042514,-89.2889256,"110 West Hamilton Street, Nokomis, Illinois 62075",Bing Maps,address,,
39.3014726,-89.2787915,"509 East Union, Nokomis, Illinois 62075",Bing Maps,address,,
41.4986725,-90.4211884,"644 Crosstown Avenue, Silvis, Illinois 61282",Bing Maps,address,,
42.1863823,-87.9074936,"30 Riverwoods Road, Lincolnshire, Illinois 60069",Bing Maps,address,,
41.779686,-87.5873947,"6330 S. Stony Island, Chicago, Illinois 60637",Bing Maps,address,,
41.8789787,-87.978363,"545 South Ardmore Avenue, Villa Park, Illinois 60181",Bing Maps,address,,
41.9956617,-87.8677692,"2300 East Devon, Des Plaines, Illinois 60018",Bing Maps,address,,
41.9111061,-87.7212296,"1633 North Hamlin Avenue, Chicago, Illinois 60647",Bing Maps,address,,
42.0545905,-87.8855194,"1600 East Gold Road, Des Plaines, Illinois 60016",Bing Maps,address,,
42.0412251,-87.6894546,"1224 Dempster Street, Evanston, Illinois 60202",Bing Maps,address,,
40.6943741,-89.5865021,"210 Spalding Avenue, Peoria, Illinois 61603",Bing Maps,address,,
41.9030495,-87.8051071,"1235 North Harlem Avenue, Oak Park, Illinois 60302",Bing Maps,address,,
40.1059422,-88.2217155,"1105 W. Nevada, Urbana, Illinois 61801",Bing Maps,address,,
41.9676323,-88.1086884,"1080 West Lake Street, Roselle, Illinois 60172",Bing Maps,address,,
41.7300278,-87.5496016,"3039 East 91st Street, Chicago, Illinois 60617",Bing Maps,address,,
39.7728348,-89.6545029,"2501 South First Street, Springfield, Illinois 62704",Bing Maps,address,,
41.6748428,-87.8358307,"8800 West 119th Street, Palos Park, Illinois 60464",Bing Maps,address,,
42.0472565,-87.6778107,"516 Church St., Evanston, Illinois 60201",Bing Maps,address,,
41.8875694,-87.7992325,"946 North Blvd, Oak Park, Illinois 60302",Bing Maps,address,,
38.5369552,-89.8742245,"441 W. Winters Street, Scott AFB, Illinois 62225",Bing Maps,address,,
42.0734901,-87.8112717,"1000 Elm Street, Glenview, Illinois 60025",Bing Maps,address,,
41.8740296,-87.6801279,"2150 W. Harrison, Chicago, Illinois 60612",Bing Maps,address,,
42.0850282,-87.7494563,"3013 Illinois Road, Wilmette, Illinois 60091",Bing Maps,address,,
41.9264808,-87.7096738,"3255 W. Altgeld Street, Chicago, Illinois 60647",Bing Maps,address,,
42.0544777,-87.6960526,"2010 Dewey, Evanston, Illinois 60201",Bing Maps,address,,
38.5245323,-90.0041122,"727 N 17th Street, Belleville, Illinois 62226",Bing Maps,address,,
42.3586655,-88.0105896,"19351 Washington Street, Grayslake, Illinois 60030",Bing Maps,address,,
42.2522621,-87.8327942,"700 North Sheridan Road, Lake Forest, Illinois 60045",Bing Maps,address,,
41.8791854,-87.6292672,"219 South Dearborn, Chicago, Illinois 60604",Bing Maps,address,,
41.8769357,-87.6302194,"78 West Van Buren Street, Chicago, Illinois 60605",Bing Maps,address,,
41.8681946,-87.6755981,"1919 West Taylor Street (mc 525), Chicago, Illinois 60612",Bing Maps,address,,
41.867939,-87.6460724,"728 W. Roosevelt Road (East Side), Chicago, Illinois 60607",Bing Maps,address,,
42.0179558,-87.7220688,"3701 Howard Street, Skokie, Illinois 60076",Bing Maps,address,,
42.0781975,-87.7051392,"1125 Wilmette Avenue, Wilmette, Illinois 600912603",Bing Maps,address,,
41.9514897,-87.6798168,"3855 North Seeley Avenue, Chicago, Illinois 60618",Bing Maps,address,,
41.779117,-87.666893,"1701 West 63rd Street, Chicago, Illinois 60636",Bing Maps,address,,
42.0797577,-88.067009,"1200 West Algonquin Road, Palatine, Illinois 60067",Bing Maps,address,,
42.0461464,-87.8575516,"9375 Church Street, Des Plaines, Illinois 60016",Bing Maps,address,,
41.9674606,-87.6572037,"4701 North Winthrop Avenue, Chicago, Illinois 60640",Bing Maps,address,,
41.8948021,-87.6701355,"1701 West Superior, Chicago, Illinois 60622",Bing Maps,address,,
41.8176575,-87.922699,"901 North Elm Street, Hinsdale, Illinois 60521",Bing Maps,address,,
41.9145241,-87.6391449,"1753 North Fern Court, Chicago, Illinois 60614",Bing Maps,address,,
38.5369552,-89.8748629,"461 W. Winter Street, Scott AFB, Illinois 62225",Bing Maps,address,,
42.05476,-87.7196503,"3637 Golf Road, Evanston, Illinois 60203",Bing Maps,address,,
41.9360369,-87.664445,"1439 West Wellington, Chicago, Illinois 60657",Bing Maps,address,,
40.1319809,-88.2897644,"2400 W. Bradley Ave., Champaign, Illinois 61821",Bing Maps,address,,
41.8932228,-87.615799,"441 East Ontario Street, Chicago, Illinois 60611",Bing Maps,address,,
42.3588982,-88.1046371,"814 Hart Road, Round Lake, Illinois 60073",Bing Maps,address,,
42.3846436,-88.0750961,"2041 N. Orchard Lane, Round Lake Beach, Illinois 60073",Bing Maps,address,,
41.8877799,-87.7654537,"5610 West Lake Street, Chicago, Illinois 60644",Bing Maps,address,,
42.1038935,-87.8755939,"2755 Sanders Road, Northbrook, Illinois 60062",Bing Maps,address,,
41.905917,-87.7287718,"1345 N. Karlov, Chicago, Illinois 60651",Bing Maps,address,,
40.4904251,-88.9424515,"1201 North Hershey Road, Bloomington, Illinois 61704",Bing Maps,address,,
42.0183601,-87.6716614,"7510 N. Ashland Avenue, Chicago, Illinois 60626",Bing Maps,address,,
41.933448,-87.640884,"2817 North Pine Grove Avenue, Chicago, Illinois 60657",Bing Maps,address,,
41.9708557,-87.6580734,"4848 North Winthrop, Chicago, Illinois 60640",Bing Maps,address,,
40.4757805,-88.9760056,"403 South State, Bloomington, Illinois 61701",Bing Maps,address,,
41.8829994,-87.8043289,"1139 Randolph Street, Oak Park, Illinois 60302",Bing Maps,address,,
42.0493622,-87.7539291,"5050 Church Street, Skokie, Illinois 60077",Bing Maps,address,,
41.8575038,-87.668695,"1814 South Paulina, Chicago, Illinois 60608",Bing Maps,address,,
41.8945503,-87.7178574,"744 North Monticello Ave., Chicago, Illinois 60624",Bing Maps,address,,
41.4925308,-90.4689636,"2100 48th Street, Moline, Illinois 61265",Bing Maps,address,,
42.3908386,-87.8864059,"2115 S. Ernie Krueger Circle, Waukegan, Illinois 60087",Bing Maps,address,,
41.7764971,-87.7031466,"6422 South Kedzie, Chicago, Illinois 60629",Bing Maps,address,,
38.7809792,-89.9488831,"500 Goshen Road, Edwardsville, Illinois 62025",Bing Maps,address,,
42.3607216,-87.8309402,"33 N. Genesee, Waukegan, Illinois 60085",Bing Maps,address,,
42.0966563,-87.8563658,"3050 Woodridge Road, Northbrook, Illinois 60062",Bing Maps,address,,
40.6630102,-89.6400522,"2219 S. Idaho, Peoria, Illinois 61605",Bing Maps,address,,
41.9457331,-87.6418374,"3480 North Lake Shore Drive, Chicago, Illinois 60657",Bing Maps,address,,
41.9238194,-87.6371174,"312 West Belden Avenue, Chicago, Illinois 60614",Bing Maps,address,,
41.5210012,-88.0997548,"110 Willow Avenue, Joliet, Illinois 60436",Bing Maps,address,,
42.1045198,-87.7300599,"684 Oak Street, Winnetka, Illinois 60093",Bing Maps,address,,
42.14664,-88.140396,"647 Dundee Avenue, Barrington, Illinois 60010",Bing Maps,address,,
42.0636255,-87.7261942,"3333 Culver Street, Evanston, Illinois 60201",Bing Maps,address,,
41.8210258,-87.7930756,"6807 Pershing Road, Stickney, Illinois 60402",Bing Maps,address,,
42.0534157,-88.0375269,"1410 North Roosevelt Blvd., Schaumburg, Illinois 60173",Bing Maps,address,,
41.9678001,-87.6552277,"4714 North Sheridan Road, Chicago, Illinois 60640",Bing Maps,address,,
41.8781025,-87.6986955,"212 South Francisco, Chicago, Illinois 60612",Bing Maps,address,,
41.8605374,-87.8406273,"5000 S. 5th Avenue, Hines, Illinois 60141",Bing Maps,address,,
41.88644,-87.624107,"225 North Michigan Avenue, Chicago, Illinois 60601",Bing Maps,address,,
38.1293106,-88.9155579,"468 North Ken Gray Parkway, Ina, Illinois 62846",Bing Maps,address,,
42.021175,-88.111053,"1223 West Sharon Lane, Schaumburg, Illinois 60193",Bing Maps,address,,
42.016963,-88.075202,"220 East Weathersfield Way, Schaumburg, Illinois 60193",Bing Maps,address,,
41.7860565,-87.6988297,"3001 West 59th Street, Chicago, Illinois 60629",Bing Maps,address,,
41.867725,-87.654823,"1100 South May, Chicago, Illinois 60607",Bing Maps,address,,
42.0084558,-87.6752228,"6969 N. Ravenswood Avenue, Chicago, Illinois 60626",Bing Maps,address,,
41.9741936,-87.7138748,"5101 N. Kimball, Chicago, Illinois 60625",Bing Maps,address,,
41.8554519,-87.6999166,"2929 West 19th Street, Chicago, Illinois 60623",Bing Maps,address,,
41.7490654,-87.6637802,"7946 South Ashland Avenue, Chicago, Illinois 60620",Bing Maps,address,,
41.7490425,-87.6630249,"7949 South Ashland Avenue, Chicago, Illinois 60620",Bing Maps,address,,
41.9415656,-87.7592672,"3330 North Lockwood Ave, Chicago, Illinois 60618",Bing Maps,address,,
41.8477178,-87.7027235,"2414 South Albany Avenue, Chicago, Illinois 60623",Bing Maps,address,,
41.8988571,-87.6288452,"15 West Delaware Place, Chicago, Illinois 60610",Bing Maps,address,,
41.8604851,-87.7503433,"1447 South 50th Court, Cicero, Illinois 60804",Bing Maps,address,,
41.8466724,-87.7735352,"2423 South Austin Blvd, Cicero, Illinois 60804",Bing Maps,address,,
41.8434792,-87.7994232,"7022 Riverside Drive, Berwyn, Illinois 60402",Bing Maps,address,,
41.8408089,-87.7467422,"2831 South 49th Avenue, Cicero, Illinois 60804",Bing Maps,address,,
41.8505592,-87.758667,"5341 Cermak Road, Cicero, Illinois 60804",Bing Maps,address,,
41.8066216,-87.6674149,"4800 South Paulina, Chicago, Illinois 60609",Bing Maps,address,,
39.0008909,-87.9102024,"203 West Missouri Street, Oblong, Illinois 62449",Bing Maps,address,,
41.965641,-87.8312073,"8151 W. Lawrence Ave., Norridge, Illinois 60706",Bing Maps,address,,
42.2686806,-89.0303955,"4345 Maray Dr., Rockford, Illinois 61107",Bing Maps,address,,
41.8811381,-87.7109271,"7 North Homan Avenue, Chicago, Illinois 60624",Bing Maps,address,,
41.6924591,-87.6131973,"401 East 111th Street, Chicago, Illinois 60628",Bing Maps,address,,
41.8691788,-87.712471,"3449 W. Arthington, Chicago, Illinois 60624",Bing Maps,address,,
41.8649261,-87.6566834,"1312 South Racine Ave., Chicago, Illinois 60608",Bing Maps,address,,
41.7570229,-87.5647736,"7601 S. Phillips Avenue, Chicago, Illinois 60649",Bing Maps,address,,
41.9310646,-87.7623215,"5423 W. Diversey Ave., Chicago, Illinois 60639",Bing Maps,address,,
41.8095779,-87.9747314,"11 East Ogden Avenue, Westmont, Illinois 60559",Bing Maps,address,,
42.1373978,-87.7630386,"840 Vernon Ave, Glencoe, Illinois 60022",Bing Maps,address,,
39.7290838,-89.619243,"1 University Plaza, Springfield, Illinois 62703",Bing Maps,address,,
41.7355843,-87.8197784,"8600 S. Roberts Road, Justice, Illinois 60458",Bing Maps,address,,
42.0276497,-87.9065218,"1375 S. 5th Avenue, Des Plaines, Illinois 60018",Bing Maps,address,,
42.2472649,-88.1244202,"25225 West Ivanhoe Road, Wauconda, Illinois 60084",Bing Maps,address,,
41.7865601,-87.7000961,"3038 West 59th Street, Chicago, Illinois 60629",Bing Maps,address,,
42.202076,-88.0252304,"23280 N. Old McHenry Road, Lake Zurich, Illinois 60089",Bing Maps,address,,
42.0531082,-88.1208878,"1685 West Higgins Road, Hoffman Estates, Illinois 60169",Bing Maps,address,,
41.9980683,-87.674044,"1754 West Devon Avenue, Chicago, Illinois 60660",Bing Maps,address,,
41.738029,-87.623558,"8601 South State Street, Chicago, Illinois 60619",Bing Maps,address,,
42.2108078,-87.9170609,"23970 North Elm Road, Lincolnshire, Illinois 60069",Bing Maps,address,,
41.8001137,-87.9543228,"39 N. Prospect Avenue, Clarendon Hills, Illinois 60514",Bing Maps,address,,
41.7613024,-87.576244,"7350 South Jeffery Boulevard, Chicago, Illinois 60649",Bing Maps,address,,
41.9278336,-87.8166656,"36 W. Conti Parkway, Elmwood Park, Illinois 60707",Bing Maps,address,,
42.0881054,-87.9595068,"1903 East Euclid Avenue, Arlington Heights, Illinois 60004",Bing Maps,address,,
40.5319132,-89.0075109,"1500 West Raab Road, Normal, Illinois 61761",Bing Maps,address,,
42.0922152,-87.8341236,"2101 1st Street, Glenview, Illinois 60026",Bing Maps,address,,
40.4924164,-88.9671631,"1617 E. Emerson Street, Bloomington, Illinois 61701",Bing Maps,address,,
37.4166877,-88.8849125,"513 East Vine Street, Vienna, Illinois 62995",Bing Maps,address,,
41.9054642,-87.9610672,"556 West North Avenue, Elmhurst, Illinois 60126",Bing Maps,address,,
42.1487367,-87.8034613,"300 Revere Drive, Northbrook, Illinois 60062",Bing Maps,address,,
42.375976,-88.070251,"1512 N Route 83, Round Lake Beach, Illinois 60073",Bing Maps,address,,
41.448308,-87.7167354,"1 University Parkway, University Park, Illinois 60484",Bing Maps,address,,
40.707695,-89.5187607,"1 College Drive, East Peoria, Illinois 61635",Bing Maps,address,,
40.5668144,-89.6469803,"315 Buena Vista, Pekin, Illinois 61554",Bing Maps,address,,
41.9595337,-87.6987686,"4300 North California Avenue, Chicago, Illinois 60618",Bing Maps,address,,
37.743085,-88.4382328,"3575 College Road, Harrisburg, Illinois 62946",Bing Maps,address,,
41.997348,-88.317802,"1250 West Spring Street, South Elgin, Illinois 60177",Bing Maps,address,,
41.899265,-87.805908,"1040 North Harlem Avenue, River Forest, Illinois 60305",Bing Maps,address,,
39.7965546,-89.6641235,"533 S. Walnut Street, Springfield, Illinois 62704",Bing Maps,address,,
41.8998277,-87.6626969,"1400 West Augusta Blvd, Chicago, Illinois 60642",Bing Maps,address,,
42.0892792,-88.105957,"3600 Lexington Drive, Hoffman Estates, Illinois 60192",Bing Maps,address,,
41.882791,-87.6295093,"40 North Dearborn Street, Chicago, Illinois 60602",Bing Maps,address,,
41.7513046,-87.5790939,"1845 East 79th Street, Chicago, Illinois 60649",Bing Maps,address,,
42.0110703,-87.7056427,"3003 West Touhy Avenue, Chicago, Illinois 60645",Bing Maps,address,,
41.9953647,-87.7292318,"4008 W. Rosemont, Chicago, Illinois 60646",Bing Maps,address,,
41.6335749,-87.6322572,"419 West 144th Street, Riverdale, Illinois 60827",Bing Maps,address,,
41.9213715,-87.6483078,"2145 North Halsted Street, Chicago, Illinois 60614",Bing Maps,address,,
41.6627884,-87.6915665,"2844 Burr Oak Avenue, Blue Island, Illinois 60406",Bing Maps,address,,
42.1568413,-88.0622253,"21955 W Field Parkway, Deer Park, Illinois 60010",Bing Maps,address,,
41.9709015,-87.6796188,"4908 North Damen Avenue, Chicago, Illinois 60625",Bing Maps,address,,
41.908618,-87.636534,"1431 N. North Park Avenue, Chicago, Illinois 60610",Bing Maps,address,,
41.9020191,-87.6379958,"363 W. Hill, Chicago, Illinois 60610",Bing Maps,address,,
41.8289953,-87.7666439,"5721 West 35th Street, Cicero, Illinois 60804",Bing Maps,address,,
41.6005058,-87.5967789,"831 East 162nd Street, South Holland, Illinois 60473",Bing Maps,address,,
40.1059402,-88.2204026,"1005 West Nevada, Urbana, Illinois 61801",Bing Maps,address,,
42.0822487,-87.7549896,"1050 Skokie Boulevard, Wilmette, Illinois 60091",Bing Maps,address,,
41.8549,-87.623069,"2001 South Michigan Avenue, Chicago, Illinois 60616",Bing Maps,address,,
41.7589531,-87.5930557,"1300 East 75th Street, Chicago, Illinois 60619",Bing Maps,address,,
41.6855888,-87.6417618,"11443 South Halsted Street, Chicago, Illinois 60628",Bing Maps,address,,
41.748413,-87.683197,"7956 South Western Avenue, Chicago, Illinois 60620",Bing Maps,address,,
41.8529549,-87.7181549,"3701 W. Ogden Ave., Chicago, Illinois 60623",Bing Maps,address,,
42.0312805,-88.276062,"210 National Street, Elgin, Illinois 60120",Bing Maps,address,,
40.1236676,-88.2436191,"809 North Neil Street, Champaign, Illinois 61820",Bing Maps,address,,
41.8623365,-87.6924748,"2653 West Ogden Avenue, Chicago, Illinois 60608",Bing Maps,address,,
41.705471,-87.778213,"10255 S. Ridgeland Avenue, Chicago Ridge, Illinois 60415",Bing Maps,address,,
41.7255974,-87.7344513,"4527 Southwest Highway, Oak Lawn, Illinois 60453",Bing Maps,address,,
42.0209818,-87.750951,"7701 Lincoln Avenue, Skokie, Illinois 60077",Bing Maps,address,,
41.7338486,-87.8205643,"8020 West 87th Street, Hickory Hills, Illinois 60457",Bing Maps,address,,
42.0075951,-87.6695557,"1545 W. Morse Avenue, Chicago, Illinois 60626",Bing Maps,address,,
41.9839211,-87.6685104,"5611 N. Clark Street, Chicago, Illinois 60660",Bing Maps,address,,
41.6333449,-87.5591797,"14421 Torrence Avenue, Burnham, Illinois 60633",Bing Maps,address,,
41.941494,-87.704361,"3300 N. Whipple Street, Chicago, Illinois 60618",Bing Maps,address,,
42.0964279,-88.0623169,"721 South Quentin Road, Palatine, Illinois 60067",Bing Maps,address,,
38.0014535,-89.2358916,"730 South Washington St, DuQuoin, Illinois 62832",Bing Maps,address,,
41.8383713,-87.6397171,"514 W. 31st Street, Chicago, Illinois 60616",Bing Maps,address,,
41.9773827,-87.6627274,"5244 N. Lakewood, Chicago, Illinois 60640",Bing Maps,address,,
40.5008539,-88.9064983,"1415 Woodbine Road, Bloomington, Illinois 61704",Bing Maps,address,,
41.8937225,-87.6160736,"446 East Ontario, Chicago, Illinois 60611",Bing Maps,address,,
42.0129013,-87.691452,"2424 West Touhy Avenue, Chicago, Illinois 60645",Bing Maps,address,,
41.908638,-88.1220245,"250 N. Gary Avenue, Carol Stream, Illinois 60188",Bing Maps,address,,
41.8949454,-88.092136,"345 S. President Avenue, Carol Stream, Illinois 60188",Bing Maps,address,,
41.779935,-87.8068529,"7438 West 61st Place, Summit, Illinois 60501",Bing Maps,address,,
41.8083651,-87.9088701,"1500 Walker Street, Western Springs, Illinois 60558",Bing Maps,address,,
41.7787568,-87.7689868,"6255 South Mayfield, Chicago, Illinois 60638",Bing Maps,address,,
41.830188,-87.668907,"1723 West 35th Street, Chicago, Illinois 60609",Bing Maps,address,,
41.8133278,-87.7037888,"4401 South Kedzie Avenue, Chicago, Illinois 60632",Bing Maps,address,,
41.8022118,-87.6215134,"118 East 51st Street, Chicago, Illinois 60615",Bing Maps,address,,
41.484745,-87.7118225,"22205 Governors Hwy, Richton Park, Illinois 60471",Bing Maps,address,,
41.9398396,-87.7664716,"3255 North Central, Chicago, Illinois 60634",Bing Maps,address,,
41.8793449,-87.7064362,"3201 West Monroe, Chicago, Illinois 60624",Bing Maps,address,,
41.910614,-87.6320801,"108 West Germania Place, Chicago, Illinois 60610",Bing Maps,address,,
41.843723,-87.686302,"2700 S. Western Avenue, Chicago, Illinois 60608",Bing Maps,address,,
42.1571999,-87.9484711,"200 Horatio Blvd., Buffalo Grove, Illinois 60089",Bing Maps,address,,
41.5450401,-88.1460114,"1206 Cedarwood Drive, Crest Hill, Illinois 60403",Bing Maps,address,,
38.9860837,-88.1663977,"501 South Walnut Street, Newton, Illinois 62448",Bing Maps,address,,
42.1767921,-88.4038315,"10547 Faiths Way, Huntley, Illinois 60142",Bing Maps,address,,
41.5310696,-88.0892868,"403 North Hickory Street, Joliet, Illinois 60435",Bing Maps,address,,
41.7851566,-87.7009358,"5954 South Albany Avenue, Chicago, Illinois 60629",Bing Maps,address,,
40.2878268,-88.1575491,"104 E Nightingale Court, Rantoul, Illinois 61866",Bing Maps,address,,
41.9144402,-87.944191,"212 West Lake Street, Elmhurst, Illinois 60126",Bing Maps,address,,
41.5199954,-88.0855713,"200 S. Desplaines Street, Joliet, Illinois 60436",Bing Maps,address,,
42.0990247,-87.8173538,"2401 Compass Road, Glenview, Illinois 60026",Bing Maps,address,,
41.878551,-87.846473,"1100-1110 W. Madison Street, Maywood, Illinois 60153",Bing Maps,address,,
41.778667,-87.703849,"3215 West 63rd Street, Chicago, Illinois 60629",Bing Maps,address,,
42.0275383,-88.0616074,"725 E. Schaumburg Road, Schaumburg, Illinois 60194",Bing Maps,address,,
41.4974518,-88.1760101,"1215 Houbolt Road, Joliet, Illinois 60431",Bing Maps,address,,
41.9026146,-87.6341248,"1111 North Wells, Chicago, Illinois 60610",Bing Maps,address,,
41.9031029,-87.7077866,"3222 West Division, Chicago, Illinois 60651",Bing Maps,address,,
41.7559433,-87.6388245,"7600 S. Parnell, Chicago, Illinois 60620",Bing Maps,address,,
42.1009445,-87.9819336,"1320 North Arlington Heights Road, Arlington Heights, Illinois 60004",Bing Maps,address,,
41.934441,-87.6830093,"2905 North Leavitt, Chicago, Illinois 60618",Bing Maps,address,,
41.6856194,-87.6166,"234 E. 115th Street, Chicago, Illinois 60628",Bing Maps,address,,
41.7930794,-87.6552048,"5522 S. Racine, Chicago, Illinois 60636",Bing Maps,address,,
42.1761589,-88.0772629,"550 W Cuba Road, Lake Zurich, Illinois 60047",Bing Maps,address,,
42.0924149,-87.7647095,"7 Happ Road, Northfield, Illinois 60096",Bing Maps,address,,
41.862091,-87.626907,"1501 South State Street, Chicago, Illinois 60605",Bing Maps,address,,
41.7502518,-87.652916,"1139 West 79th Street, Chiacgo, Illinois 60620",Bing Maps,address,,
42.0061111,-88.3343201,"2395 Bowes Road, Elgin, Illinois 60123",Bing Maps,address,,
42.0407349,-87.7287155,"4023 Dempster Street, Skokie, Illinois 60076",Bing Maps,address,,
42.0407369,-87.7292144,"4035 Dempster Street, Skokie, Illinois 60076",Bing Maps,address,,
42.0262952,-87.7452245,"4700 Oakton Street, Skokie, Illinois 60076",Bing Maps,address,,
41.793045,-87.7778702,"6287 South Archer Avenue, Chicago, Illinois 60638",Bing Maps,address,,
41.7576294,-88.3029785,"525 College Avenue, Aurora, Illinois 60505",Bing Maps,address,,
41.3478425,-88.8408975,"114 East Jefferson Street, Ottawa, Illinois 61350",Bing Maps,address,,
42.1531483,-87.8782875,"One Takeda Parkway, Deerfield, Illinois 60015",Bing Maps,address,,
41.8807532,-87.7061635,"10 South Kedzie, Chicago, Illinois 60612",Bing Maps,address,,
41.6004868,-87.6330719,"396 East 159th Street, Harvey, Illinois 60426",Bing Maps,address,,
40.1118698,-88.1986008,"108 South Webber Street, Urbana, Illinois 61802",Bing Maps,address,,
42.075706,-88.062118,"2601 North Quentin Road, Schaumburg, Illinois 60173",Bing Maps,address,,
41.6985152,-88.0657786,"151 E. Briarcliff Road, Bolingbrook, Illinois 60440",Bing Maps,address,,
41.940952,-88.115959,"290 Knollwood Drive, Bloomingdale, Illinois 60108",Bing Maps,address,,
42.0633354,-87.6851044,"1000 Central Street, Evanston, Illinois 60201",Bing Maps,address,,
42.2499237,-88.297226,"645 Dakota Street, Crystal Lake, Illinois 60012",Bing Maps,address,,
41.4899728,-88.1463193,"1704 Alexandria Drive, Joliet, Illinois 60436",Bing Maps,address,,
42.0197029,-87.6934967,"1501 Howard Street, Evanston, Illinois 60202",Bing Maps,address,,
41.9444275,-88.0226517,"950 North Lombard Road, Addison, Illinois 60101",Bing Maps,address,,
41.7503052,-87.6495667,"1015 W. 79th Street, Chicago, Illinois 60620",Bing Maps,address,,
41.8942566,-87.7268066,"730 North Pulaski Road, Chicago, Illinois 60624",Bing Maps,address,,
41.9015656,-87.7488251,"1120 North Lamon, Chicago, Illinois 60651",Bing Maps,address,,
42.0906067,-88.2920685,"711 Willow Lane, Sleepy Hollow, Illinois 60118",Bing Maps,address,,
41.8595657,-87.9933777,"1214 S. Meyers Road, Lombard, Illinois 60148",Bing Maps,address,,
41.935878,-88.063598,"355 South Glen Ellyn Road, Bloomingdale, Illinois 60108",Bing Maps,address,,
41.9653286,-87.659086,"1145 West Wilson Avenue, Chicago, Illinois 60640",Bing Maps,address,,
42.2387047,-87.9634552,"5 East Phillip Road, Vernon Hills, Illinois 60061",Bing Maps,address,,
41.951353,-87.7156571,"3855 N Elston Avenue, Chicago, Illinois 60618",Bing Maps,address,,
41.8808594,-87.7486877,"4920 West Madison street, Chicago, Illinois 60644",Bing Maps,address,,
41.7562417,-87.7222661,"7500 South Pulaski Road, Chicago, Illinois 60652",Bing Maps,address,,
41.7426414,-88.2430801,"745 Long Grove Drive, Aurora, Illinois 60504",Bing Maps,address,,
41.8306046,-88.3208008,"1505 S. Batavia Avenue, Batavia, Illinois 60510",Bing Maps,address,,
41.9312049,-87.7749252,"5934 W. Diversey, Chicago, Illinois 60639",Bing Maps,address,,
38.5714912,-89.9208755,"1160 Fortune Blvd., Shiloh, Illinois 62269",Bing Maps,address,,
41.7839851,-87.8932724,"1900 58th place, LaGrange, Illinois 60525",Bing Maps,address,,
41.8178558,-87.8743896,"125 North Kensington Avenue, LaGrange, Illinois 60525",Bing Maps,address,,
42.2302818,-87.975914,"451 Creekside Drive, Vernon Hills, Illinois 60061",Bing Maps,address,,
41.7636871,-88.2406769,"3044 Weber Drive, Aurora, Illinois 60504",Bing Maps,address,,
42.3434792,-88.0246353,"130 South Atkinson Road, Grayslake, Illinois 60030",Bing Maps,address,,
41.70729,-87.636344,"514-522 W. 103rd Street, Chicago, Illinois 60628",Bing Maps,address,,
42.1699524,-88.332695,"501 Rolls Dr, Algonquin, Illinois 60102",Bing Maps,address,,
41.8860412,-88.0233762,"249 W. St Charles Road, Lombard, Illinois 60148",Bing Maps,address,,
41.7740898,-87.9945068,"6222 Fairview Ave, Downers Grove, Illinois 60516",Bing Maps,address,,
42.1472168,-88.4351196,"12581 Princeton Drive, Huntley, Illinois 60142",Bing Maps,address,,
42.356678,-88.0444489,"790 N. Lake Street, Grayslake, Illinois 60030",Bing Maps,address,,
40.0545765,-88.2545344,"310 W. Church Street, Savoy, Illinois 61874",Bing Maps,address,,
41.9196815,-88.2103424,"2044 Franciscan Way, West Chicago, Illinois 60185",Bing Maps,address,,
42.0062504,-88.004,"800 S. Arlington Heights Road, Elk Grove Village, Illinois 60007",Bing Maps,address,,
41.903522,-88.334777,"1875 Prairie Street, Saint Charles, Illinois 60174",Bing Maps,address,,
41.9128227,-88.081955,"1470 Bloomingdale Road, Glendale Heights, Illinois 60139",Bing Maps,address,,
41.9415245,-88.1701584,"1360 West Army Trail Road, Carol Stream, Illinois 60188",Bing Maps,address,,
41.688312,-88.340301,"100 Pfund Court, Oswego, Illinois 60543",Bing Maps,address,,
38.3477937,-88.5951199,"702 West Smith Street, Wayne City, Illinois 62895",Bing Maps,address,,
42.1092834,-88.1136017,"1351 Palatine Road, Hoffman Estates, Illinois 60192",Bing Maps,address,,
42.4008331,-88.0048523,"599 Falling Waters Way, Lindenhurst, Illinois 60046",Bing Maps,address,,
41.8456049,-87.9022155,"1 Westbrook Corporate Center, Westchester, Illinois 60154",Bing Maps,address,,
41.9981575,-88.0572433,"925 E Nerge Road, Roselle, Illinois 60172",Bing Maps,address,,
38.3841129,-88.3947321,"2226 Mt. Vernon Road, Fairfied, Illinois 62837",Bing Maps,address,,
41.8227615,-87.9558563,"1111 Pasquinelli Drive, Westmont, Illinois 60559",Bing Maps,address,,
41.9406586,-88.0820694,"2264 Bloomingdale Road, Glendale Heights, Illinois 60139",Bing Maps,address,,
41.4654274,-90.5534439,"3316 Blackhawk Road, Rock Island, Illinois 61201",Bing Maps,address,,
42.0657654,-87.9792099,"1003 S. Arlington Heights Road, Arlington Heights, Illinois 60005",Bing Maps,address,,
42.076931,-88.2051239,"5100 Sedge Boulevard, Hoffman Estates, Illinois 60192",Bing Maps,address,,
42.3874626,-87.9624176,"6480 Gurnee Mills Circle, Gurnee, Illinois 60031",Bing Maps,address,,
42.3624954,-87.9163132,"4574 Brookhaven Road, Gurnee, Illinois 60031",Bing Maps,address,,
42.0439682,-87.8420792,"8650 W. Ballard Road, Des Plaines, Illinois 60016",Bing Maps,address,,
41.7480774,-88.184433,"1915 Three Farms Avenue, Naperville, Illinois 60540",Bing Maps,address,,
42.1086699,-88.2999106,"112 Tay River Drive, Carpentersville, Illinois 60110",Bing Maps,address,,
42.2118721,-88.2453384,"324 Crystal Street, Cary, Illinois 60013",Bing Maps,address,,
41.6304401,-87.5659255,"1664 Dolton Rd, Calumet City, Illinois 60409",Bing Maps,address,,
41.9415817,-88.747879,"207 East Hillcrest Drive, Dekalb, Illinois 60115",Bing Maps,address,,
41.9135398,-87.6548313,"1733 North Marcey Street, Chicago, Illinois 60614",Bing Maps,address,,
41.8931805,-87.6375921,"350 W. Ontario St, Chicago, Illinois 60654",Bing Maps,address,,
41.8321609,-88.0994339,"100 East Loop Road, Wheaton, Illinois 60187",Bing Maps,address,,
42.3793983,-88.0990677,"700 West Rollins Road, Round Lake Heights, Illinois 60073",Bing Maps,address,,
42.3166122,-89.0327911,"3890 Northridge Drive, Rockford, Illinois 61114",Bing Maps,address,,
42.0410494,-87.7007843,"2014 Dempster Street, Evanston, Illinois 60202",Bing Maps,address,,
42.0045166,-88.1214905,"1122 Westover Lane, Schaumburg, Illinois 60193",Bing Maps,address,,
42.0252113,-88.3155823,"1520 Main Lane, Elgin, Illinois 60123",Bing Maps,address,,
41.9500923,-87.7468491,"3809 North Cicero Avenue, Chicago, Illinois 60641",Bing Maps,address,,
41.5792239,-87.5506751,"2745 Bernice Road, Lansing, Illinois 60438",Bing Maps,address,,
41.7183571,-87.550621,"9725 South Commercial, Chicago, Illinois 60617",Bing Maps,address,,
41.8427353,-88.1023102,"1746 South Naperville Road, Wheaton, Illinois 60186",Bing Maps,address,,
41.8859272,-87.725877,"316 N Pulaski Rd, Chicago, Illinois 60624",Bing Maps,address,,
41.6226952,-87.5443203,"777 Sibley Blvd., Calumet City, Illinois 60409",Bing Maps,address,,
41.6230202,-87.5693588,"1810 Sibley Blvd., Calumet City, Illinois 60409",Bing Maps,address,,
41.921733,-87.636825,"2150 N.Lincoln Park West, Chicago, Illinois 60614",Bing Maps,address,,
41.7076645,-88.0909271,"540 West Boughton Road, Bolingbrook, Illinois 60440",Bing Maps,address,,
38.5932465,-89.9343491,"940 Talon Drive, O'Fallon, Illinois 62269",Bing Maps,address,,
41.5796242,-87.5603333,"2350 Bernice Road, Lansing, Illinois 60438",Bing Maps,address,,
38.5418015,-89.9437027,"2390 Lebanon Avenue, Belleville, Illinois 62221",Bing Maps,address,,
41.9222228,-87.7575438,"5235 West Belden Avenue, Chicago, Illinois 60639",Bing Maps,address,,
41.7513426,-87.6034905,"854 East 79th Street, Chicago, Illinois 60619",Bing Maps,address,,
42.1713028,-87.9729691,"651 Deerfield Parkway, Buffalo Grove, Illinois 60089",Bing Maps,address,,
41.7359012,-87.6587782,"1414 W 87th Street, Chicago, Illinois 60620",Bing Maps,address,,
41.491272,-87.5598297,"2591 Sauk Trail, Sauk Village, Illinois 60411",Bing Maps,address,,
41.4917001,-87.5539005,"13 Sauk Plaza, Sauk Village, Illinois 60411",Bing Maps,address,,
41.5018757,-87.5300831,"21592 Lincoln Highway, Lynwood, Illinois 60411",Bing Maps,address,,
41.7381477,-87.6044769,"8607 South Cottage Grove, Chicago, Illinois 60619",Bing Maps,address,,
41.7376671,-87.6044693,"8625 S. Cottage Grove, Chicago, Illinois 60619",Bing Maps,address,,
41.7075729,-87.6146088,"338 East 103rd Street, Chicago, Illinois 60628",Bing Maps,address,,
41.6234512,-87.5400238,"454 Burnham Avenue, Calumet City, Illinois 60409",Bing Maps,address,,
38.7747116,-89.9911346,"2 Auerbach Place, Glen Carbon, Illinois 62034",Bing Maps,address,,
41.6914348,-87.7122655,"3656 West 111th Street, Chicago, Illinois 60655",Bing Maps,address,,
41.9396089,-87.6798436,"2044-B W. Belmont Avenue, Chicago, Illinois 60618",Bing Maps,address,,
41.780273,-87.624183,"22-26 East 63rd Street, Chicago, Illinois 60637",Bing Maps,address,,
41.8018265,-87.620163,"221 East 51st Street, Chicago, Illinois 60615",Bing Maps,address,,
41.933198,-88.772439,"Campus Child Care Center, DeKalb, Illinois 60115",Bing Maps,address,,", "
40.510938,-88.993575,"Illinois State University, Campus Box 5060, Normal, Illinois 61790",Bing Maps,address,,
